[
   {
      "restaurantName":"Lahalibo",
      "id": 1,
      "address":"RRC7+GC Kafr El-Zayat City, Kafr El-Zayat",
      "lat":30.823025,
      "long":30.8178345,
      "image": "../images/1.jpg",
      "ratings":[
         {
            "stars":4,
            "comment":"Great! But not many veggie options."
         },
         {
            "stars":5,
            "comment":"My favorite restaurant!"
         }
      ]
   },
   {
      "restaurantName":"Nema",
      "id": 2,
      "address":"RRF8+CF Kafr El-Zayat, Kafr El-Zayat City, Kafr El-Zayat",
      "lat":30.8235763,
      "long":30.8139696,
      "image": "../images/2.jpg",
      "ratings":[
         {
            "stars":5,
            "comment":"Tiny pizzeria next to Sacre Coeur!"
         },
         {
            "stars":3,
            "comment":"Meh, it was fine."
         }
      ]
   },
   {
      "restaurantName":"La polenta ",
      "id": 3,
      "address":"RRF8+CF Kafr El-Zayat, Kafr El-Zayat",
      "lat":30.8248086,
      "long":30.8137926,
      "image": "../images/3.png",
      "ratings":[
         {
            "stars":5,
            "comment":"Tiny pizzeria next to Sacre Coeur!"
         },
         {
            "stars":3,
            "comment":"Meh, it was fine."
         }
      ]
   },
   {
      "restaurantName":"Teta Crepe",
      "id": 4,
      "address":"RRF8+CF Kafr El-Zayat, Kafr El-Zayat City, Kafr El-Zayat",
      "lat":30.8251621,
      "long":30.8130845,
      "image": "../images/4.jpg",
      "ratings":[
         {
            "stars":5,
            "comment":"Tiny pizzeria next to Sacre Coeur!"
         },
         {
            "stars":3,
            "comment":"Meh, it was fine."
         }
      ]
   },
   {
      "restaurantName":"MiX Crepe",
      "id": 5,
      "address":"RRF8+CF Kafr El-Zayat, Kafr El-Zayat City, Kafr El-Zayat",
      "lat":30.8253383,
      "long":30.8155012,
      "image": "../images/5.jpg",
      "ratings":[
         {
            "stars":5,
            "comment":"Tiny pizzeria next to Sacre Coeur!"
         },
         {
            "stars":3,
            "comment":"Meh, it was fine."
         }
      ]
   },
   {
      "restaurantName":"Makani",
      "id": 6,
      "address":"RRF8+CF Kafr El-Zayat, Kafr El-Zayat City, Kafr El-Zayat",
      "lat":30.8259644,
      "long":30.8122437,
      "image": "../images/6.jpg",
      "ratings":[
         {
            "stars":5,
            "comment":"Tiny pizzeria next to Sacre Coeur!"
         },
         {
            "stars":3,
            "comment":"Meh, it was fine."
         }
      ]
   },
   {
      "restaurantName":"Tiatro",
      "id": 7,
      "address":"RRF8+CF Kafr El-Zayat, Kafr El-Zayat City, Kafr El-Zayat",
      "lat":30.8254396,
      "long":30.8135,
      "image": "../images/7.jpg",
      "ratings":[
         {
            "stars":5,
            "comment":"Tiny pizzeria next to Sacre Coeur!"
         },
         {
            "stars":3,
            "comment":"Meh, it was fine."
         }
      ]
   },
   {
      "restaurantName":"Dahab",
      "id": 8,
      "address":"RRF8+CF Kafr El-Zayat, Kafr El-Zayat City, Kafr El-Zayat",
      "lat":30.825306,
      "long":30.8144213,
      "image": "../images/8.jpg",
      "ratings":[
         {
            "stars":5,
            "comment":"Tiny pizzeria next to Sacre Coeur!"
         },
         {
            "stars":3,
            "comment":"Meh, it was fine."
         }
      ]
   },
   {
      "restaurantName":"Dardasha",
      "id": 9,
      "address":"RRF8+CF Kafr El-Zayat, Kafr El-Zayat City, Kafr El-Zayat",
      "lat":30.8252674,
      "long":30.8138715,
      "image": "../images/9.jpeg",
      "ratings":[
         {
            "stars":5,
            "comment":"Tiny pizzeria next to Sacre Coeur!"
         },
         {
            "stars":3,
            "comment":"Meh, it was fine."
         }
      ]
   },
   {
      "restaurantName":"Badaweia",
      "id": 10,
      "address":"RRF8+CF Kafr El-Zayat, Kafr El-Zayat City, Kafr El-Zayat",
      "lat":30.823598,
      "long":30.8181709,
      "image": "../images/10.jpeg",
      "ratings":[
         {
            "stars":5,
            "comment":"Tiny pizzeria next to Sacre Coeur!"
         },
         {
            "stars":3,
            "comment":"Meh, it was fine."
         }
      ]
   }
]