[
  {
    "restaurantName": "Lahalibo",
    "id": 1,
    "address": "RRC7+GC Kafr El-Zayat City, Kafr El-Zayat",
    "lat": 30.791447655723015,
    "long": 30.994265604199008,
    "image": "https://img.traveltriangle.com/blog/wp-content/uploads/2019/06/Cover-for-Restaurants-in-Luxor.jpg",
    "ratings": 4,
    "feedback": "Great! But not many veggie options."
  },
  {
    "restaurantName": "Nema",
    "id": 2,
    "address": "RRF8+CF Kafr El-Zayat, Kafr El-Zayat City, Kafr El-Zayat",
    "lat": 30.799078581599396,
    "long": 31.010659265697345,
    "image": "https://static.trip101.com/paragraph_media/pictures/001/662/213/large/6493652353_497a9fdbf9_b.jpg?1560852803",
    "ratings": 3,
    "feedback": "Not bad it's fine!"
  },
  {
    "restaurantName": "La polenta ",
    "id": 3,
    "address": "RRF8+CF Kafr El-Zayat, Kafr El-Zayat",
    "lat": 30.78868267801927,
    "long": 31.011045503795525,
    "image": "https://www.osiristours.com/wp-content/uploads/2018/03/Egyptian_food_Koshary.jpg",
    "ratings": 3,
    "feedback": "Meh, it was okay"
  },
  {
    "restaurantName": "Teta Crepe",
    "id": 4,
    "address": "RRF8+CF Kafr El-Zayat, Kafr El-Zayat City, Kafr El-Zayat",
    "lat": 30.787871602810576,
    "long": 30.99752717036048,
    "image": "https://3.bp.blogspot.com/_jqHZBih7kik/TNHJAWWKGpI/AAAAAAAADaM/wfoNTzapKvU/s1600/Restaurants+in+Cairo.JPG",
    "ratings": 5,
    "feedback": "Great! it was my best"
  },
  {
    "restaurantName": "MiX Crepe",
    "id": 5,
    "address": "RRF8+CF Kafr El-Zayat, Kafr El-Zayat City, Kafr El-Zayat",
    "lat": 30.80486588470359,
    "long": 31.002376604260032,
    "image": "https://media-cdn.tripadvisor.com/media/photo-s/11/e7/e4/43/osmanly-restaurant.jpg",
    "ratings": 2,
    "feedback": "Actually it was a bad one"
  },
  {
    "restaurantName": "Makani",
    "id": 6,
    "address": "RRF8+CF Kafr El-Zayat, Kafr El-Zayat City, Kafr El-Zayat",
    "lat": 30.798120141081938,
    "long": 30.99181942957742,
    "image": "https://fastly.4sqi.net/img/general/699x268/WZIVQKQJUJFIAI23PL4XEAHBZWO2Y0AVI3A15W1FOVXL22FD.jpg",
    "ratings": 5,
    "feedback": "It was so amzing"
  },
  {
    "restaurantName": "Tiatro",
    "id": 7,
    "address": "RRF8+CF Kafr El-Zayat, Kafr El-Zayat City, Kafr El-Zayat",
    "lat": 30.78636003530408,
    "long": 30.99014573115214,
    "image": "https://i.ytimg.com/vi/r0N4VU7q7F8/maxresdefault.jpg",
    "ratings": 4,
    "feedback": "it was a nice one!"
  },
  {
    "restaurantName": "Dahab",
    "id": 8,
    "address": "RRF8+CF Kafr El-Zayat, Kafr El-Zayat City, Kafr El-Zayat",
    "lat": 30.801916983992285,
    "long": 30.992162752331005,
    "image": "https://img.traveltriangle.com/blog/wp-content/uploads/2019/05/El-Masry1.jpg",
    "ratings": 3,
    "feedback": "It was okay!"
  },
  {
    "restaurantName": "Dardasha",
    "id": 9,
    "address": "RRF8+CF Kafr El-Zayat, Kafr El-Zayat City, Kafr El-Zayat",
    "lat": 30.793217199725618,
    "long": 31.019585657299224,
    "image": "https://media-cdn.tripadvisor.com/media/photo-s/0a/58/0c/92/al-sahaby-lane-restaurant.jpg",
    "ratings": 5,
    "feedback": "woow it was so amazing!"
  },
  {
    "restaurantName": "Badaweia",
    "id": 10,
    "address": "RRF8+CF Kafr El-Zayat, Kafr El-Zayat City, Kafr El-Zayat",
    "lat": 30.79911544450565,
    "long": 31.020529794872836,
    "image": "https://media-cdn.tripadvisor.com/media/photo-s/11/90/9d/0b/20171221-193956-largejpg.jpg",
    "ratings": 4,
    "feedback": "Great! it was pretty good"
  }
]
