[
   {
      "restaurantName":"Lahalibo",
      "id": 1,
      "address":"RRC7+GC Kafr El-Zayat City, Kafr El-Zayat",
      "lat":30.823025,
      "long":30.8178345,
      "image": "https://www.ask-aladdin.com/images/famous-restaurants_ph3.jpg",
      "ratings":[
         {
            "stars":4,
            "comment":"Great! But not many veggie options."
         },
         {
            "stars":5,
            "comment":"My favorite restaurant!"
         }
      ]
   },
   {
      "restaurantName":"Nema",
      "id": 2,
      "address":"RRF8+CF Kafr El-Zayat, Kafr El-Zayat City, Kafr El-Zayat",
      "lat":30.8235763,
      "long":30.8139696,
      "image": "https://static.trip101.com/paragraph_media/pictures/001/662/213/large/6493652353_497a9fdbf9_b.jpg?1560852803",
      "ratings":[
         {
            "stars":5,
            "comment":"Tiny pizzeria next to Sacre Coeur!"
         },
         {
            "stars":3,
            "comment":"Meh, it was fine."
         }
      ]
   },
   {
      "restaurantName":"La polenta ",
      "id": 3,
      "address":"RRF8+CF Kafr El-Zayat, Kafr El-Zayat",
      "lat":30.8248086,
      "long":30.8137926,
      "image": "https://www.osiristours.com/wp-content/uploads/2018/03/Egyptian_food_Koshary.jpg",
      "ratings":[
         {
            "stars":4,
            "comment":"So good, but there are better!"
         },
         {
            "stars":3,
            "comment":"Meh, it was Okay."
         }
      ]
   },
   {
      "restaurantName":"Teta Crepe",
      "id": 4,
      "address":"RRF8+CF Kafr El-Zayat, Kafr El-Zayat City, Kafr El-Zayat",
      "lat":30.8251621,
      "long":30.8130845,
      "image": "https://3.bp.blogspot.com/_jqHZBih7kik/TNHJAWWKGpI/AAAAAAAADaM/wfoNTzapKvU/s1600/Restaurants+in+Cairo.JPG",
      "ratings":[
         {
            "stars":5,
            "comment":"so so great!"
         },
         {
            "stars":4,
            "comment":"It was so cool!"
         }
      ]
   },
   {
      "restaurantName":"MiX Crepe",
      "id": 5,
      "address":"RRF8+CF Kafr El-Zayat, Kafr El-Zayat City, Kafr El-Zayat",
      "lat":30.8253383,
      "long":30.8155012,
      "image": "https://media-cdn.tripadvisor.com/media/photo-s/11/e7/e4/43/osmanly-restaurant.jpg",
      "ratings":[
         {
            "stars":4,
            "comment":"Enjoyed my time there!"
         },
         {
            "stars":3,
            "comment":"Not good as I expected"
         }
      ]
   },
   {
      "restaurantName":"Makani",
      "id": 6,
      "address":"RRF8+CF Kafr El-Zayat, Kafr El-Zayat City, Kafr El-Zayat",
      "lat":30.8259644,
      "long":30.8122437,
      "image": "https://fastly.4sqi.net/img/general/699x268/WZIVQKQJUJFIAI23PL4XEAHBZWO2Y0AVI3A15W1FOVXL22FD.jpg",
      "ratings":[
         {
            "stars":5,
            "comment":"it was so amazing!"
         },
         {
            "stars":4,
            "comment":"So far so good!"
         }
      ]
   },
   {
      "restaurantName":"Tiatro",
      "id": 7,
      "address":"RRF8+CF Kafr El-Zayat, Kafr El-Zayat City, Kafr El-Zayat",
      "lat":30.8254396,
      "long":30.8135,
      "image": "https://i.ytimg.com/vi/r0N4VU7q7F8/maxresdefault.jpg",
      "ratings":[
         {
            "stars":3,
            "comment":"It was fine but not great!"
         },
         {
            "stars":4,
            "comment":"so so good, I gonna come again"
         }
      ]
   },
   {
      "restaurantName":"Dahab",
      "id": 8,
      "address":"RRF8+CF Kafr El-Zayat, Kafr El-Zayat City, Kafr El-Zayat",
      "lat":30.825306,
      "long":30.8144213,
      "image": "https://img.traveltriangle.com/blog/wp-content/uploads/2019/05/El-Masry1.jpg",
      "ratings":[
         {
            "stars":3,
            "comment":"Just okay"
         },
         {
            "stars":3,
            "comment":"Meh, it was fine."
         }
      ]
   },
   {
      "restaurantName":"Dardasha",
      "id": 9,
      "address":"RRF8+CF Kafr El-Zayat, Kafr El-Zayat City, Kafr El-Zayat",
      "lat":30.8252674,
      "long":30.8138715,
      "image": "https://media-cdn.tripadvisor.com/media/photo-s/0a/58/0c/92/al-sahaby-lane-restaurant.jpg",
      "ratings":[
         {
            "stars":5,
            "comment":"It's really great one!"
         },
         {
            "stars":4,
            "comment":"So so amzing"
         }
      ]
   },
   {
      "restaurantName":"Badaweia",
      "id": 10,
      "address":"RRF8+CF Kafr El-Zayat, Kafr El-Zayat City, Kafr El-Zayat",
      "lat":30.823598,
      "long":30.8181709,
      "image": "https://media-cdn.tripadvisor.com/media/photo-s/11/90/9d/0b/20171221-193956-largejpg.jpg",
      "ratings":[
         {
            "stars":5,
            "comment":"Wow, it's a cool one!"
         },
         {
            "stars":5,
            "comment":"Definitely I gonna come next time!"
         }
      ]
   }
]